
$PMTK001,220,3*30 ,4025.9765,N,07448.2680,W,0.13,105.85,040119,,,A*73735
0

$GPGGA,193943.000,4025.9764,N,07448.2681,W,1,09,0.93,103.1,M,-34.1,M,,*5D1666
0

$GPRMC,193943.000,A,4025.9764,N,07448.2681,W,0.20,116.29,040119,,,A*761678
0

$GPGGA,193944.000,4025.9762,N,07448.2682,W,1,09,0.93,103.2,M,-34.1,M,,*5C2733
0

$GPRMC,193944.000,A,4025.9762,N,07448.2682,W,0.32,168.87,040119,,,A*7A2745
0

$GPGGA,193945.000,4025.9763,N,07448.2682,W,1,09,0.93,103.2,M,-34.1,M,,*5C3753
0

$GPRMC,193945.000,A,4025.9763,N,07448.2682,W,0.09,139.91,040119,,,A*713768
0

$GPGGA,193946.000,4025.9763,N,07448.2683,W,1,09,0.93,103.3,M,-34.1,M,,*5F4755
0

$GPRMC,193946.000,A,4025.9763,N,07448.2683,W,0.10,209.77,040119,,,A*734766
0

$GPGGA,193947.000,4025.9763,N,07448.2683,W,1,09,0.93,103.3,M,-34.1,M,,*5E5755
0

$GPRMC,193947.000,A,4025.9763,N,07448.2683,W,0.06,243.30,040119,,,A*785768
0

$GPGGA,193948.000,4025.9763,N,07448.2683,W,1,09,0.93,103.3,M,-34.1,M,,*516750
1

$GPRMC,193948.000,A,4025.9763,N,07448.2683,W,0.08,170.30,040119,,,A*7A6765
1

$GPGGA,193949.000,4025.9763,N,07448.2683,W,1,08,0.94,103.3,M,-34.1,M,,*567808
1

$GPRMC,193949.000,A,4025.9763,N,07448.2683,W,0.18,231.89,040119,,,A*7E7820
1

$GPGGA,193950.000,4025.9763,N,07448.2684,W,1,08,0.94,103.3,M,-34.1,M,,*598782
1

$GPRMC,193950.000,A,4025.9763,N,07448.2684,W,0.08,151.90,040119,,,A*7D8795
1

$GPGGA,193951.000,4025.9762,N,07448.2684,W,1,08,0.94,103.3,M,-34.1,M,,*599729
1

$GPRMC,193951.000,A,4025.9762,N,07448.2684,W,0.25,127.73,040119,,,A*7E9743
1

$GPGGA,193952.000,4025.9762,N,07448.2683,W,1,08,0.94,103.3,M,-34.1,M,,*5D10770
1

$GPRMC,193952.000,A,4025.9762,N,07448.2683,W,0.14,149.87,040119,,,A*7B10781
1

$GPGGA,193953.000,4025.9762,N,07448.2683,W,1,09,0.93,103.3,M,-34.1,M,,*5A11688
2

$GPRMC,193953.000,A,4025.9762,N,07448.2683,W,0.08,120.84,040119,,,A*7B11701
2

$GPGGA,193954.000,4025.9763,N,07448.2683,W,1,09,0.93,103.4,M,-34.1,M,,*5B12742
2

$GPRMC,193954.000,A,4025.9763,N,07448.2683,W,0.07,121.45,040119,,,A*7E12758
2

$GPGGA,193955.000,4025.9763,N,07448.2683,W,1,09,0.93,103.4,M,-34.1,M,,*5A13710
3

$GPRMC,193955.000,A,4025.9763,N,07448.2683,W,0.07,211.20,040119,,,A*7C13722
3

$GPGGA,193956.000,4025.9764,N,07448.2685,W,1,09,0.93,103.2,M,-34.1,M,,*5E14750
4

$GPRMC,193956.000,A,4025.9764,N,07448.2685,W,0.20,262.78,040119,,,A*7214763
4

$GPGGA,193957.000,4025.9763,N,07448.2686,W,1,09,0.93,103.1,M,-34.1,M,,*5815691
4

$GPRMC,193957.000,A,4025.9763,N,07448.2686,W,0.27,226.32,040119,,,A*7E15703
4

$GPGGA,193958.000,4025.9763,N,07448.2687,W,1,09,0.93,103.1,M,-34.1,M,,*5616687
4

$GPRMC,193958.000,A,4025.9763,N,07448.2687,W,0.25,256.50,040119,,,A*7116699
4

$GPGGA,193959.000,4025.9763,N,07448.2687,W,1,09,0.93,103.0,M,-34.1,M,,*5617685
5

$GPRMC,193959.000,A,4025.9763,N,07448.2687,W,0.18,241.32,040119,,,A*7C17697
5

$GPGGA,194000.000,4025.9763,N,07448.2688,W,1,09,0.93,103.0,M,-34.1,M,,*5B18680
5

$GPRMC,194000.000,A,4025.9763,N,07448.2688,W,0.29,224.35,040119,,,A*7718692
5

$GPGGA,194001.000,4025.9762,N,07448.2688,W,1,09,0.93,103.0,M,-34.1,M,,*5B19773
5

$GPRMC,194001.000,A,4025.9762,N,07448.2688,W,0.12,247.81,040119,,,A*7519785
5

$GPGGA,194002.000,4025.9762,N,07448.2689,W,1,09,0.93,103.0,M,-34.1,M,,*5920343
5

$GPRMC,194002.000,A,4025.9762,N,07448.2689,W,0.19,41.27,040119,,,A*4420356
5

$GPGGA,194003.000,4025.9763,N,07448.2688,W,1,09,0.93,103.0,M,-34.1,M,,*5821817
6

$GPRMC,194003.000,A,4025.9763,N,07448.2688,W,0.14,80.93,040119,,,A*4A21829
6

$GPGGA,194004.000,4025.9763,N,07448.2688,W,1,09,0.93,103.0,M,-34.1,M,,*5F22822
6

$GPRMC,194004.000,A,4025.9763,N,07448.2688,W,0.10,26.97,040119,,,A*4122835
6

$GPGGA,194005.000,4025.9762,N,07448.2689,W,1,09,0.93,102.7,M,-34.1,M,,*5823819
6

$GPRMC,194005.000,A,4025.9762,N,07448.2689,W,0.05,292.28,040119,,,A*7D23830
6

$GPGGA,194006.000,4025.9762,N,07448.2688,W,1,09,0.93,102.5,M,-34.1,M,,*5824825
6

$GPRMC,194006.000,A,4025.9762,N,07448.2688,W,0.05,138.39,040119,,,A*7C24839
6

$GPGGA,194007.000,4025.9762,N,07448.2689,W,1,09,0.93,102.3,M,-34.1,M,,*5E25808
6

$GPRMC,194007.000,A,4025.9762,N,07448.2689,W,0.10,180.28,040119,,,A*7B25821
6

$GPGGA,194008.000,4025.9762,N,07448.2689,W,1,09,0.93,102.1,M,-34.1,M,,*5326826
6

$GPRMC,194008.000,A,4025.9762,N,07448.2689,W,0.06,292.25,040119,,,A*7E26839
6

$GPGGA,194009.000,4025.9763,N,07448.2690,W,1,09,0.93,101.9,M,-34.1,M,,*5027819
6

$GPRMC,194009.000,A,4025.9763,N,07448.2690,W,0.18,337.49,040119,,,A*7D27831
6

$GPGGA,194010.000,4025.9764,N,07448.2690,W,1,09,0.93,101.8,M,-34.1,M,,*5E28822
6

$GPRMC,194010.000,A,4025.9764,N,07448.2690,W,0.24,330.84,040119,,,A*7B28834
6

$GPGGA,194011.000,4025.9763,N,07448.2690,W,1,09,0.93,101.6,M,-34.1,M,,*5629825
6

$GPRMC,194011.000,A,4025.9763,N,07448.2690,W,0.15,16.59,040119,,,A*4829837
6

$GPGGA,194012.000,4025.9763,N,07448.2691,W,1,09,0.93,101.5,M,-34.1,M,,*5730823
6

$GPRMC,194012.000,A,4025.9763,N,07448.2691,W,0.08,308.11,040119,,,A*7630835
6

$GPGGA,194013.000,4025.9762,N,07448.2690,W,1,09,0.93,101.3,M,-34.1,M,,*5031770
6

$GPRMC,194013.000,A,4025.9762,N,07448.2690,W,0.18,145.96,040119,,,A*7231782
6

$GPGGA,194014.000,4025.9762,N,07448.2690,W,1,09,0.93,101.1,M,-34.1,M,,*5532768
6

$GPRMC,194014.000,A,4025.9762,N,07448.2690,W,0.10,100.92,040119,,,A*7832779
6

$GPGGA,194015.000,4025.9762,N,07448.2690,W,1,09,0.93,101.0,M,-34.1,M,,*5533771
6

$GPRMC,194015.000,A,4025.9762,N,07448.2690,W,0.19,36.38,040119,,,A*4433783
6

$GPGGA,194016.000,4025.9762,N,07448.2689,W,1,09,0.93,100.9,M,-34.1,M,,*5634750
6

$GPRMC,194016.000,A,4025.9762,N,07448.2689,W,0.19,76.79,040119,,,A*4E34762
6

$GPGGA,194017.000,4025.9763,N,07448.2689,W,1,09,0.93,100.9,M,-34.1,M,,*5635706
6

$GPRMC,194017.000,A,4025.9763,N,07448.2689,W,0.10,56.32,040119,,,A*4A35719
6

$GPGGA,194018.000,4025.9763,N,07448.2688,W,1,09,0.93,100.8,M,-34.1,M,,*5936749
6

$GPRMC,194018.000,A,4025.9763,N,07448.2688,W,0.24,97.30,040119,,,A*4C36761
6

$GPGGA,194019.000,4025.9763,N,07448.2688,W,1,09,0.93,100.7,M,-34.1,M,,*5737774
7

$GPRMC,194019.000,A,4025.9763,N,07448.2688,W,0.12,88.23,040119,,,A*4437788
7

$GPGGA,194020.000,4025.9763,N,07448.2690,W,1,09,0.93,100.7,M,-34.1,M,,*5438693
7

$GPRMC,194020.000,A,4025.9763,N,07448.2690,W,0.13,238.21,040119,,,A*7D38706
7

$GPGGA,194021.000,4025.9762,N,07448.2691,W,1,09,0.93,100.7,M,-34.1,M,,*5539690
7

$GPRMC,194021.000,A,4025.9762,N,07448.2691,W,0.17,221.79,040119,,,A*7D