
$PMTK001,220,3*00,A,4025.9742,N,07448.2643,W,0.14,10.30,040119,,,A*4C
0

$GPGGA,195654.000,4025.9743,N,07448.2644,W,1,09,0.91,99.7,M,-34.1,M,,*68
1

$GPRMC,195654.000,A,4025.9743,N,07448.2644,W,0.08,342.06,040119,,,A*71
1

$GPGGA,195655.000,4025.9744,N,07448.2643,W,1,09,0.91,99.7,M,-34.1,M,,*69
1

$GPRMC,195655.000,A,4025.9744,N,07448.2643,W,0.05,103.69,040119,,,A*73
1

$GPGGA,195656.000,4025.9744,N,07448.2642,W,1,09,0.91,99.7,M,-34.1,M,,*6B
1

$GPRMC,195656.000,A,4025.9744,N,07448.2642,W,0.11,192.68,040119,,,A*7D
1

$GPGGA,195657.000,4025.9744,N,07448.2640,W,1,09,0.91,99.7,M,-34.1,M,,*68
2

$GPRMC,195657.000,A,4025.9744,N,07448.2640,W,0.11,111.84,040119,,,A*77
2

$GPGGA,195658.000,4025.9743,N,07448.2637,W,1,09,0.91,99.7,M,-34.1,M,,*60
3

$GPRMC,195658.000,A,4025.9743,N,07448.2637,W,0.32,111.24,040119,,,A*74
3

$GPGGA,195659.000,4025.9744,N,07448.2634,W,1,09,0.91,99.7,M,-34.1,M,,*65
3

$GPRMC,195659.000,A,4025.9744,N,07448.2634,W,0.24,101.48,040119,,,A*7D
3

$GPGGA,195700.000,4025.9744,N,07448.2633,W,1,09,0.91,99.7,M,-34.1,M,,*6F
4

$GPRMC,195700.000,A,4025.9744,N,07448.2633,W,0.17,71.67,040119,,,A*4C
4

$GPGGA,195701.000,4025.9744,N,07448.2633,W,1,09,0.91,99.7,M,-34.1,M,,*6E
4

$GPRMC,195701.000,A,4025.9744,N,07448.2633,W,0.13,73.17,040119,,,A*4C
4

$GPGGA,195702.000,4025.9744,N,07448.2632,W,1,09,0.91,99.7,M,-34.1,M,,*6C
4

$GPRMC,195702.000,A,4025.9744,N,07448.2632,W,0.13,108.11,040119,,,A*75
4

$GPGGA,195703.000,4025.9743,N,07448.2631,W,1,09,0.91,99.7,M,-34.1,M,,*69
4

$GPRMC,195703.000,A,4025.9743,N,07448.2631,W,0.19,114.19,040119,,,A*7F
4

$GPGGA,195704.000,4025.9743,N,07448.2631,W,1,09,0.91,99.7,M,-34.1,M,,*6E
4

$GPRMC,195704.000,A,4025.9743,N,07448.2631,W,0.16,58.81,040119,,,A*4F
4

$GPGGA,195705.000,4025.9743,N,07448.2630,W,1,09,0.91,99.7,M,-34.1,M,,*6E
4

$GPRMC,195705.000,A,4025.9743,N,07448.2630,W,0.07,89.62,040119,,,A*4E
4

$GPGGA,195706.000,4025.9743,N,07448.2630,W,1,09,0.91,99.8,M,-34.1,M,,*62
5

$GPRMC,195706.000,A,4025.9743,N,07448.2630,W,0.09,96.91,040119,,,A*41
5

$GPGGA,195707.000,4025.9743,N,07448.2630,W,1,09,0.91,99.8,M,-34.1,M,,*63
5

$GPRMC,195707.000,A,4025.9743,N,07448.2630,W,0.09,71.92,040119,,,A*4A
5

$GPGGA,195708.000,4025.9743,N,07448.2630,W,1,09,0.91,99.8,M,-34.1,M,,*6C
5

$GPRMC,195708.000,A,4025.9743,N,07448.2630,W,0.14,250.79,040119,,,A*7D
5

$GPGGA,195709.000,4025.9743,N,07448.2630,W,1,09,0.91,99.8,M,-34.1,M,,*6D
5

$GPRMC,195709.000,A,4025.9743,N,07448.2630,W,0.11,342.97,040119,,,A*7B
5

$GPGGA,195710.000,4025.9744,N,07448.2630,W,1,09,0.91,99.8,M,-34.1,M,,*62
5

$GPRMC,195710.000,A,4025.9744,N,07448.2630,W,0.19,335.13,040119,,,A*70
5

$GPGGA,195711.000,4025.9744,N,07448.2631,W,1,09,0.91,99.8,M,-34.1,M,,*62
5

$GPRMC,195711.000,A,4025.9744,N,07448.2631,W,0.21,351.94,040119,,,A*76
5

$GPGGA,195712.000,4025.9745,N,07448.2631,W,1,09,0.91,99.8,M,-34.1,M,,*60
6

$GPRMC,195712.000,A,4025.9745,N,07448.2631,W,0.13,305.31,040119,,,A*7B
6

$GPGGA,195713.000,4025.9745,N,07448.2631,W,1,09,0.91,99.8,M,-34.1,M,,*61
6

$GPRMC,195713.000,A,4025.9745,N,07448.2631,W,0.04,35.70,040119,,,A*49
6

$GPGGA,195714.000,4025.9745,N,07448.2631,W,1,09,0.91,99.8,M,-34.1,M,,*66
7

$GPRMC,195714.000,A,4025.9745,N,07448.2631,W,0.09,285.51,040119,,,A*79
7

$GPGGA,195715.000,4025.9745,N,07448.2631,W,1,09,0.91,99.8,M,-34.1,M,,*67
8

$GPRMC,195715.000,A,4025.9745,N,07448.2631,W,0.18,315.21,040119,,,A*77
8

$GPGGA,195716.000,4025.9746,N,07448.2632,W,1,09,0.91,99.8,M,-34.1,M,,*64
8

$GPRMC,195716.000,A,4025.9746,N,07448.2632,W,0.21,337.94,040119,,,A*70
8

$GPGGA,195717.000,4025.9746,N,07448.2632,W,1,09,0.91,99.8,M,-34.1,M,,*65
8

$GPRMC,195717.000,A,4025.9746,N,07448.2632,W,0.17,307.74,040119,,,A*79
8

$GPGGA,195718.000,4025.9746,N,07448.2633,W,1,09,0.91,99.8,M,-34.1,M,,*6B
9

$GPRMC,195718.000,A,4025.9746,N,07448.2633,W,0.05,294.54,040119,,,A*7D
9

$GPGGA,195719.000,4025.9746,N,07448.2633,W,1,09,0.91,99.8,M,-34.1,M,,*6A
9

$GPRMC,195719.000,A,4025.9746,N,07448.2633,W,0.10,277.78,040119,,,A*7B
9

$GPGGA,195720.000,4025.9746,N,07448.2633,W,1,09,0.91,99.8,M,-34.1,M,,*60
9

$GPRMC,195720.000,A,4025.9746,N,07448.2633,W,0.11,282.67,040119,,,A*74
9

$GPGGA,195721.000,4025.9747,N,07448.2634,W,1,09,0.91,99.8,M,-34.1,M,,*67
11

$GPRMC,195721.000,A,4025.9747,N,07448.2634,W,0.06,340.17,040119,,,A*7D
11

$GPGGA,195722.000,4025.9747,N,07448.2634,W,1,09,0.91,99.8,M,-34.1,M,,*64
12

$GPRMC,195722.000,A,4025.9747,N,07448.2634,W,0.09,31.52,040119,,,A*45
12

$GPGGA,195723.000,4025.9747,N,07448.2633,W,1,09,0.91,99.8,M,-34.1,M,,*62
12

$GPRMC,195723.000,A,4025.9747,N,07448.2633,W,0.02,338.42,040119,,,A*73
12

$GPGGA,195724.000,4025.9747,N,07448.2633,W,1,09,0.91,99.8,M,-34.1,M,,*65
12

$GPRMC,195724.000,A,4025.9747,N,07448.2633,W,0.07,92.11,040119,,,A*44
12

$GPGGA,195725.000,4025.9747,N,07448.2633,W,1,09,0.91,99.8,M,-34.1,M,,*64
12

$GPRMC,195725.000,A,4025.9747,N,07448.2633,W,0.09,59.83,040119,,,A*47
12

$GPGGA,195726.000,4025.9747,N,07448.2633,W,1,09,0.91,99.8,M,-34.1,M,,*67
12

$GPRMC,195726.000,A,4025.9747,N,07448.2633,W,0.07,2.16,040119,,,A*78
12

$GPGGA,195727.000,4025.9747,N,07448.2633,W,1,09,0.91,99.8,M,-34.1,M,,*66
12

$GPRMC,195727.000,A,4025.9747,N,07448.2633,W,0.04,64.41,040119,,,A*48
12

$GPGGA,195728.000,4025.9747,N,07448.2633,W,1,09,0.91,99.8,M,-34.1,M,,*69
12

$GPRMC,195728.000,A,4025.9747,N,07448.2633,W,0.09,274.89,040119,,,A*7D
12

$GPGGA,195729.000,4025.9747,N,07448.2633,W,1,09,0.91,99.8,M,-34.1,M,,*68
12

$GPRMC,195729.000,A,4025.9747,N,07448.2633,W,0.12,326.15,040119,,,A*75
12

$GPGGA,195730.000,4025.9748,N,07448.2633,W,1,09,0.91,99.8,M,-34.1,M,,*6F
14

$GPRMC,195730.000,A,4025.9748,N,07448.2633,W,0.11,315.91,040119,,,A*7D
14

$GPGGA,195731.000,4025.9748,N,07448.2634,W,1,09,0.91,99.8,M,-34.1,M,,*69
14

$GPRMC,195731.000,A,4025.9748,N,07448.2634,W,0.21,358.09,040119,,,A*70
14

$GPGGA,195732.000,4025.9749,N,07448.2634,W,1,09,0.92,99.8,M,-34.1,M,,*68
15

$GPRMC,195732.000,A,4025.9749,N,07448.2634,W,0.15,356.49,040119,,,A*7F
15

$GPGGA,195733.000,4025.9749,N,07448.2634,W,1,09,0.92,99.8,M,-34.1,M,,*69
15

$GPRMC,195733.000,A,4025.9749,N,07448.2634,W,0.08,311.67,040119,,,A*7D
15

$GPGGA,195734.000,4025.9749,N,07448.2634,W,1,09,0.91,99.8,M,-34.1,M,,*6D
17

$GPRMC,195734.000,A,4025.9749,N,07448.2634,W,0.10,9.62,040119,,,A*7C
17

$GPGGA,195735.000,4025.9749,N,07448.2634,W,1,09,0.92,99.8,M,-34.1,M,,*6F
18

$GPRMC,195735.000,A,4025.9749,N,07448.2634,W,0.08,18.77,040119,,,A*40
18

$GPGGA,195736.000,4025.9750,N,07448.2634,W,1,09,0.91,99.8,M,-34.1,M,,*67
19

$GPRMC,195736.000,A,4025.9750,N,07448.2634,W,0.26,295.78,040119,,,A*7F
19

$GPGGA,195737.000,4025.9750,N,07448.2635,W,1,09,0.91,99.8,M,-34.1,M,,*67
19

$GPRMC,195737.000,A,4025.9750,N,07448.2635,W,0.14,312.23,040119,,,A*7E
19

$GPGGA,195738.000,4025.9750,N,07448.2635,W,1,09,0.91,99.8,M,-34.1,M,,*68
20

$GPRMC,195738.000,A,4025.9750,N,07448.2635,W,0.10,260.75,040119,,,A*72
20

$GPGGA,195739.000,4025.9750,N,07448.2635,W,1,09,0.91,99.8,M,-34.1,M,,*69
20

$GPRMC,195739.000,A,4025.9750,N,07448.2635,W,0.12,295.45,040119,,,A*78
20

$GPGGA,195740.000,4025.9750,N,07448.2636,W,1,09,0.91,99.8,M,-34.1,M,,*64
20

$GPRMC,195740.000,A,4025.9750,N,07448.2636,W,0.16,288.13,040119,,,A*7E
20

$GPGGA,195741.000,4025.9750,N,07448.2636,W,1,09,0.91,99.8,M,-34.1,M,,*65
20

$GPRMC,195741.000,A,4025.9750,N,07448.2636,W,0.24,305.37,040119,,,A*7C
20

$GPGGA,195742.000,4025.9751,N,07448.2637,W,1,09,0.91,99.8,M,-34.1,M,,*66
20

$GPRMC,195742.000,A,4025.9751,N,07448.2637,W,0.27,347.63,040119,,,A*7B
20

$GPGGA,195743.000,4025.9752,N,07448.2637,W,1,09,0.92,99.8,M,-34.1,M,,*67
20

$GPRMC,195743.000,A,4025.9752,N,07448.2637,W,0.10,20.98,040119,,,A*4B
20

$GPGGA,195744.000,4025.9752,N,07448.2637,W,1,09,0.91,99.8,M,-34.1,M,,*63
20

$GPRMC,195744.000,A,4025.9752,N,07448.2637,W,0.14,264.84,040119,,,A*77
20

$GPGGA,195745.000,4025.9752,N,07448.2638,W,1,09,0.91,99.8,M,-34.1,M,,*6D
21

$GPRMC,195745.000,A,4025.9752,N,07448.2638,W,0.07,289.18,040119,,,A*7D
21

$GPGGA,195746.000,4025.9752,N,07448.2638,W,1,09,0.91,99.8,M,-34.1,M,,*6E
21

$GPRMC,195746.000,A,4025.9752,N,07448.2638,W,0.23,310.46,040119,,,A*72
21

$GPGGA,195747.000,4025.9752,N,07448.2639,W,1,09,0.91,99.8,M,-34.1,M,,*6E
21

$GPRMC,195747.000,A,4025.9752,N,07448.2639,W,0.31,295.41,040119,,,A*7A
21

$GPGGA,195748.000,4025.9753,N,07448.2640,W,1,09,0.91,99.8,M,-34.1,M,,*6E
23

$GPRMC,195748.000,A,4025.9753,N,07448.2640,W,0.24,322.13,040119,,,A*74
23

$GPGGA,195749.000,4025.9753,N,07448.2640,W,1,09,0.91,99.8,M,-34.1,M,,*6F
23

$GPRMC,195749.000,A,4025.9753,N,07448.2640,W,0.12,10.11,040119,,,A*40
23

$GPGGA,195750.000,4025.9754,N,07448.2640,W,1,09,0.92,99.8,M,-34.1,M,,*63
23

$GPRMC,195750.000,A,4025.9754,N,07448.2640,W,0.09,129.05,040119,,,A*7B
23

$GPGGA,195751.000,4025.9753,N,07448.2640,W,1,09,0.91,99.8,M,-34.1,M,,*66
23

$GPRMC,195751.000,A,4025.9753,N,07448.2640,W,0.08,149.50,040119,,,A*7A
23

$GPGGA,195752.000,4025.9753,N,07448.2639,W,1,09,0.91,99.8,M,-34.1,M,,*6B
23

$GPRMC,195752.000,A,4025.9753,N,07448.2639,W,0.23,49.01,040119,,,A*4B
23

$GPGGA,195753.000,4025.9754,N,07448.2639,W,1,09,0.91,99.8,M,-34.1,M,,*6D
23

$GPRMC,195753.000,A,4025.9754,N,07448.2639,W,0.24,342.44,040119,,,A*73
23

$GPGGA,195754.000,4025.9754,N,07448.2639,W,1,09,0.91,99.8,M,-34.1,M,,*6A
23

$GPRMC,195754.000,A,4025.9754,N,07448.2639,W,0.25,333.58,040119,,,A*7E
23

$GPGGA,195755.000,4025.9755,N,07448.2640,W,1,09,0.91,99.8,M,-34.1,M,,*64
23

$GPRMC,195755.000,A,4025.9755,N,07448.2640,W,0.24,324.43,040119,,,A*7D
23

$GPGGA,195756.000,4025.9755,N,07448.2640,W,1,09,0.91,99.8,M,-34.1,M,,*67
23

$GPRMC,195756.000,A,4025.9755,N,07448.2640,W,0.17,298.33,040119,,,A*7F