
$GPGGA,194024.000,4025.9763,N,07448.2693,W,1,08,1.08,100.6,M,-34.1,M,,*50920
0

$GPRMC,194024.000,A,4025.9763,N,07448.2693,W,0.10,351.59,040119,,,A*78931
0

$GPGGA,194025.000,4025.9763,N,07448.2692,W,1,08,1.14,100.5,M,-34.1,M,,*5E1904
0

$GPRMC,194025.000,A,4025.9763,N,07448.2692,W,0.08,77.18,040119,,,A*431916
0

$GPGGA,194026.000,4025.9763,N,07448.2692,W,1,08,1.08,100.5,M,-34.1,M,,*502917
0

$GPRMC,194026.000,A,4025.9763,N,07448.2692,W,0.25,29.03,040119,,,A*4E2928
0

$GPGGA,194027.000,4025.9764,N,07448.2691,W,1,09,0.93,100.5,M,-34.1,M,,*573921
1

$GPRMC,194027.000,A,4025.9764,N,07448.2691,W,0.28,35.10,040119,,,A*493934
1

$GPGGA,194028.000,4025.9765,N,07448.2691,W,1,09,0.93,100.5,M,-34.1,M,,*594920
1

$GPRMC,194028.000,A,4025.9765,N,07448.2691,W,0.16,352.06,040119,,,A*7F4932
1

$GPGGA,194029.000,4025.9765,N,07448.2691,W,1,09,0.97,100.5,M,-34.1,M,,*5C5918
1

$GPRMC,194029.000,A,4025.9765,N,07448.2691,W,0.18,44.20,040119,,,A*405931
1

$GPGGA,194030.000,4025.9765,N,07448.2690,W,1,09,0.93,100.5,M,-34.1,M,,*516928
1

$GPRMC,194030.000,A,4025.9765,N,07448.2690,W,0.22,57.83,040119,,,A*4B6939
1

$GPGGA,194031.000,4025.9766,N,07448.2690,W,1,09,0.93,100.5,M,-34.1,M,,*537859
1

$GPRMC,194031.000,A,4025.9766,N,07448.2690,W,0.10,80.47,040119,,,A*4A7870
1

$GPGGA,194032.000,4025.9766,N,07448.2689,W,1,09,0.93,100.5,M,-34.1,M,,*588845
1

$GPRMC,194032.000,A,4025.9766,N,07448.2689,W,0.17,124.55,040119,,,A*7A8856
1

$GPGGA,194033.000,4025.9766,N,07448.2689,W,1,09,0.93,100.5,M,-34.1,M,,*599857
2

$GPRMC,194033.000,A,4025.9766,N,07448.2689,W,0.20,130.28,040119,,,A*709868
2

$GPGGA,194034.000,4025.9765,N,07448.2688,W,1,09,0.93,100.5,M,-34.1,M,,*5C10828
3

$GPRMC,194034.000,A,4025.9765,N,07448.2688,W,0.10,136.86,040119,,,A*7410841
3

$GPGGA,194035.000,4025.9765,N,07448.2688,W,1,09,0.93,100.5,M,-34.1,M,,*5D11783
3

$GPRMC,194035.000,A,4025.9765,N,07448.2688,W,0.04,191.38,040119,,,A*7811795
3

$GPGGA,194036.000,4025.9765,N,07448.2688,W,1,09,0.93,100.5,M,-34.1,M,,*5E12830
3

$GPRMC,194036.000,A,4025.9765,N,07448.2688,W,0.26,160.41,040119,,,A*7B12843
3

$GPGGA,194037.000,4025.9764,N,07448.2687,W,1,09,0.93,100.5,M,-34.1,M,,*5113835
3

$GPRMC,194037.000,A,4025.9764,N,07448.2687,W,0.06,179.55,040119,,,A*7B13847
3

$GPGGA,194038.000,4025.9764,N,07448.2687,W,1,09,0.93,100.5,M,-34.1,M,,*5E14806
3

$GPRMC,194038.000,A,4025.9764,N,07448.2687,W,0.17,229.20,040119,,,A*7014818
3

$GPGGA,194039.000,4025.9764,N,07448.2688,W,1,09,0.93,100.5,M,-34.1,M,,*5015795
3

$GPRMC,194039.000,A,4025.9764,N,07448.2688,W,0.11,260.41,040119,,,A*7215810
3

$GPGGA,194040.000,4025.9764,N,07448.2688,W,1,09,0.93,100.5,M,-34.1,M,,*5E16828
3

$GPRMC,194040.000,A,4025.9764,N,07448.2688,W,0.08,248.42,040119,,,A*7D16840
3

$GPGGA,194041.000,4025.9764,N,07448.2688,W,1,09,0.93,100.5,M,-34.1,M,,*5F17827
3

$GPRMC,194041.000,A,4025.9764,N,07448.2688,W,0.02,196.63,040119,,,A*7517840
3

$GPGGA,194042.000,4025.9763,N,07448.2688,W,1,09,0.93,100.5,M,-34.1,M,,*5B18829
3

$GPRMC,194042.000,A,4025.9763,N,07448.2688,W,0.08,205.65,040119,,,A*7418843
3

$GPGGA,194043.000,4025.9763,N,07448.2689,W,1,09,0.93,100.5,M,-34.1,M,,*5B19788
3

$GPRMC,194043.000,A,4025.9763,N,07448.2689,W,0.09,190.05,040119,,,A*7C19801
3

$GPGGA,194044.000,4025.9763,N,07448.2689,W,1,09,0.93,100.5,M,-34.1,M,,*5C20829
3

$GPRMC,194044.000,A,4025.9763,N,07448.2689,W,0.15,228.15,040119,,,A*7720840
3

$GPGGA,194045.000,4025.9763,N,07448.2689,W,1,09,0.93,100.5,M,-34.1,M,,*5D21885
3

$GPRMC,194045.000,A,4025.9763,N,07448.2689,W,0.07,40.86,040119,,,A*4321900
3

$GPGGA,194046.000,4025.9763,N,07448.2689,W,1,09,0.93,100.5,M,-34.1,M,,*5E22845
3

$GPRMC,194046.000,A,4025.9763,N,07448.2689,W,0.08,32.83,040119,,,A*4F22857
3

$GPGGA,194047.000,4025.9763,N,07448.2689,W,1,09,0.93,100.5,M,-34.1,M,,*5F23887
3

$GPRMC,194047.000,A,4025.9763,N,07448.2689,W,0.21,87.33,040119,,,A*4023899
3

$GPGGA,194048.000,4025.9763,N,07448.2688,W,1,09,0.93,100.5,M,-34.1,M,,*5124890
3

$GPRMC,194048.000,A,4025.9763,N,07448.2688,W,0.08,67.10,040119,,,A*4A24904
3

$GPGGA,194049.000,4025.9763,N,07448.2687,W,1,09,0.93,100.5,M,-34.1,M,,*5F25876
4

$GPRMC,194049.000,A,4025.9763,N,07448.2687,W,0.06,257.02,040119,,,A*7825887
4

$GPGGA,194050.000,4025.9763,N,07448.2688,W,1,09,0.93,100.5,M,-34.1,M,,*5826873
4

$GPRMC,194050.000,A,4025.9763,N,07448.2688,W,0.06,152.83,040119,,,A*7026886
4

$GPGGA,194051.000,4025.9763,N,07448.2688,W,1,09,0.93,100.5,M,-34.1,M,,*5927866
4

$GPRMC,194051.000,A,4025.9763,N,07448.2688,W,0.06,225.25,040119,,,A*7E27881
4

$GPGGA,194052.000,4025.9763,N,07448.2688,W,1,09,0.93,100.5,M,-34.1,M,,*5A28858
5

$GPRMC,194052.000,A,4025.9763,N,07448.2688,W,0.01,188.32,040119,,,A*7828870
5

$GPGGA,194053.000,4025.9763,N,07448.2688,W,1,09,0.93,100.5,M,-34.1,M,,*5B29891
5

$GPRMC,194053.000,A,4025.9763,N,07448.2688,W,0.01,15.84,040119,,,A*41